{
	"locations": [
		{
			"name": "Ala Moana Farmers' Market",
			"street": "1450 Ala Moana Blvd.",
			"city": "Honolulu",
			"state": "state",
			"details": "Ala Moana Center, upper deck by Sears, corner of Piikoi & Ala Moana Blvd.",
			"longitude": "21.28928015800045",
			"latitude": "-157.84219969299974",
			"hours": "9:00 AM to 1:00 PM",
			"sunday": "closed",
			"monday": "closed",
			"tuesday": "closed",
			"wednesday": "closed",
			"thursday": "closed",			
			"friday": "closed",
			"saturday": "open"
		},
		{
			"name": "Banyan Court Mall (People's Open Market)",
			"street": "800 North King Street",
			"city": "Honolulu",
			"state": "HI",
			"details": "",
			"longitude": "21.302690421000477",
			"latitude": "-157.85208973299973",
			"hours": "6:15 AM to 7:30 AM",
			"sunday": "closed",
			"monday": "closed",
			"tuesday": "closed",
			"wednesday": "closed",
			"thursday": "closed",			
			"friday": "closed",
			"saturday": "open"
		},
		{
			"name": "Benjamin Parker Elementary School",
			"street": "45-259 Waikalua Road",
			"city": "Kaneohe",
			"state": "HI",
			"details": "",
			"longitude": "21.413500808000435",
			"latitude": "-157.79883930699975",
			"hours": "8:00 AM to 2:00 PM",
			"sunday": "closed",
			"monday": "closed",
			"tuesday": "closed",
			"wednesday": "closed",
			"thursday": "closed",			
			"friday": "closed",
			"saturday": "open"
		},
		{
			"name": "City Hall Parking Lot Deck (People's Open Market)",
			"street": "",
			"city": "Honolulu",
			"state": "HI",
			"details": "",
			"longitude": "21.304850435000446",
			"latitude": "-157.85774940299973",
			"hours": "11:45 AM to 12:30 PM",
			"sunday": "closed",
			"monday": "open",
			"tuesday": "closed",
			"wednesday": "closed",
			"thursday": "closed",			
			"friday": "closed",
			"saturday": "closed"
		}
	]
}